{
  "IAD": {
    "city": "Ashburn",
    "state": "Virginia",
    "country": "United States",
    "countryCode": "US",
    "latitude": 38.94449997,
    "longitude": -77.45580292,
    "count": 1
  },
  "ATL": {
    "city": "Atlanta",
    "state": "Georgia",
    "country": "United States",
    "countryCode": "US",
    "latitude": 33.6367,
    "longitude": -84.428101,
    "count": 1
  },
  "AUZ": {
    "city": "Aurora",
    "state": "Illinois",
    "country": "United States",
    "countryCode": "US",
    "latitude": 41.771944,
    "longitude": -88.475556,
    "count": 1
  },
  "AUS": {
    "city": "Austin",
    "state": "Texas",
    "country": "United States",
    "countryCode": "US",
    "latitude": 30.194499969482422,
    "longitude": -97.6698989868164,
    "count": 1
  },
  "BOS": {
    "city": "Boston",
    "state": "Massachusetts",
    "country": "United States",
    "countryCode": "US",
    "latitude": 42.36429977,
    "longitude": -71.00520325,
    "count": 1
  },
  "YYC": {
    "city": "Calgary",
    "state": null,
    "country": "Canada",
    "countryCode": "CA",
    "latitude": 51.113899231,
    "longitude": -114.019996643,
    "count": 1
  },
  "MDW": {
    "city": "Chicago",
    "state": "Illinois",
    "country": "United States",
    "countryCode": "US",
    "latitude": 41.785999,
    "longitude": -87.752403,
    "count": 1
  },
  "CMH": {
    "city": "Columbus",
    "state": "Ohio",
    "country": "United States",
    "countryCode": "US",
    "latitude": 39.998001,
    "longitude": -82.891899,
    "count": 1
  },
  "CBF": {
    "city": "Council Bluffs",
    "state": "Iowa",
    "country": "United States",
    "countryCode": "US",
    "latitude": 41.26,
    "longitude": -95.758611,
    "count": 1
  },
  "DEN": {
    "city": "Denver",
    "state": "Colorado",
    "country": "United States",
    "countryCode": "US",
    "latitude": 39.861698150635,
    "longitude": -104.672996521,
    "count": 1
  },
  "DAL": {
    "city": "Dallas",
    "state": "Texas",
    "country": "United States",
    "countryCode": "US",
    "latitude": 32.847099,
    "longitude": -96.851799,
    "count": 1
  },
  "HOU": {
    "city": "Houston",
    "state": "Texas",
    "country": "United States",
    "countryCode": "US",
    "latitude": 29.64539909,
    "longitude": -95.27890015,
    "count": 1
  },
  "MCI": {
    "city": "Kansas City",
    "state": "Missouri",
    "country": "United States",
    "countryCode": "US",
    "latitude": 39.2976,
    "longitude": -94.713898,
    "count": 1
  },
  "LAS": {
    "city": "Las Vegas",
    "state": "Nevada",
    "country": "United States",
    "countryCode": "US",
    "latitude": 36.08010101,
    "longitude": -115.1520004,
    "count": 1
  },
  "LAX": {
    "city": "Los Angeles",
    "state": "California",
    "country": "United States",
    "countryCode": "US",
    "latitude": 33.942501,
    "longitude": -118.407997,
    "count": 1
  },
  "MIA": {
    "city": "Miami",
    "state": "Florida",
    "country": "United States",
    "countryCode": "US",
    "latitude": 25.79319953918457,
    "longitude": -80.29060363769531,
    "count": 1
  },
  "MSP": {
    "city": "Minneapolis",
    "state": "Minnesota",
    "country": "United States",
    "countryCode": "US",
    "latitude": 44.882,
    "longitude": -93.221802,
    "count": 1
  },
  "YUL": {
    "city": "Montreal",
    "state": null,
    "country": "Canada",
    "countryCode": "CA",
    "latitude": 45.470556,
    "longitude": -73.740833,
    "count": 1
  },
  "JFK": {
    "city": "New York",
    "state": "New York",
    "country": "United States",
    "countryCode": "US",
    "latitude": 40.639801,
    "longitude": -73.7789,
    "count": 1
  },
  "PAO": {
    "city": "Palo Alto",
    "state": "California",
    "country": "United States",
    "countryCode": "US",
    "latitude": 37.461111,
    "longitude": -122.115,
    "count": 1
  },
  "PHL": {
    "city": "Philadelphia",
    "state": "Pennsylvania",
    "country": "United States",
    "countryCode": "US",
    "latitude": 39.87189865112305,
    "longitude": -75.24109649658203,
    "count": 1
  },
  "PHX": {
    "city": "Phoenix",
    "state": "Arizona",
    "country": "United States",
    "countryCode": "US",
    "latitude": 33.43429946899414,
    "longitude": -112.01200103759766,
    "count": 1
  },
  "PDX": {
    "city": "Portland",
    "state": "Oregon",
    "country": "United States",
    "countryCode": "US",
    "latitude": 45.58869934,
    "longitude": -122.5979996,
    "count": 1
  },
  "SLC": {
    "city": "Salt Lake City",
    "state": "Utah",
    "country": "United States",
    "countryCode": "US",
    "latitude": 40.78839874267578,
    "longitude": -111.97799682617188,
    "count": 1
  },
  "SAT": {
    "city": "San Antonio",
    "state": "Texas",
    "country": "United States",
    "countryCode": "US",
    "latitude": 29.533701,
    "longitude": -98.469803,
    "count": 1
  },
  "SJC": {
    "city": "Santa Clara",
    "state": "California",
    "country": "United States",
    "countryCode": "US",
    "latitude": 37.3627777778,
    "longitude": -121.9291666667,
    "count": 1
  },
  "BFI": {
    "city": "Seattle",
    "state": "Washington",
    "country": "United States",
    "countryCode": "US",
    "latitude": 47.529998779296875,
    "longitude": -122.302001953125,
    "count": 1
  },
  "QRO": {
    "city": "Querétaro",
    "state": null,
    "country": "Mexico",
    "countryCode": "MX",
    "latitude": 20.6173,
    "longitude": -100.185997,
    "count": 1
  },
  "YYZ": {
    "city": "Toronto",
    "state": null,
    "country": "Canada",
    "countryCode": "CA",
    "latitude": 43.6772003174,
    "longitude": -79.63059997559999,
    "count": 1
  },
  "YVR": {
    "city": "Vancouver",
    "state": null,
    "country": "Canada",
    "countryCode": "CA",
    "latitude": 49.193901062,
    "longitude": -123.183998108,
    "count": 1
  },
  "BOG": {
    "city": "Bogota",
    "state": null,
    "country": "Colombia",
    "countryCode": "CO",
    "latitude": 4.70159,
    "longitude": -74.1469,
    "count": 1
  },
  "EZE": {
    "city": "Buenos Aires",
    "state": null,
    "country": "Argentina",
    "countryCode": "AR",
    "latitude": -34.8222,
    "longitude": -58.5358,
    "count": 1
  },
  "GIG": {
    "city": "Rio de Janeiro",
    "state": null,
    "country": "Brazil",
    "countryCode": "BR",
    "latitude": -22.8099994659,
    "longitude": -43.2505569458,
    "count": 1
  },
  "SCL": {
    "city": "Santiago",
    "state": null,
    "country": "Chile",
    "countryCode": "CL",
    "latitude": -33.393001556396484,
    "longitude": -70.78579711914062,
    "count": 1
  },
  "GRU": {
    "city": "São Paulo",
    "state": null,
    "country": "Brazil",
    "countryCode": "BR",
    "latitude": -23.435556411743164,
    "longitude": -46.47305679321289,
    "count": 1
  },
  "AMS": {
    "city": "Amsterdam",
    "state": null,
    "country": "Netherlands",
    "countryCode": "NL",
    "latitude": 52.308601,
    "longitude": 4.76389,
    "count": 1
  },
  "BCN": {
    "city": "Barcelona",
    "state": null,
    "country": "Spain",
    "countryCode": "ES",
    "latitude": 41.2971,
    "longitude": 2.07846,
    "count": 1
  },
  "SXF": {
    "city": "Berlin",
    "state": null,
    "country": "Germany",
    "countryCode": "DE",
    "latitude": 52.380001,
    "longitude": 13.5225,
    "count": 1
  },
  "BUD": {
    "city": "Budapest",
    "state": null,
    "country": "Hungary",
    "countryCode": "HU",
    "latitude": 47.42976,
    "longitude": 19.261093,
    "count": 1
  },
  "OTP": {
    "city": "Bucharest",
    "state": null,
    "country": "Romania",
    "countryCode": "RO",
    "latitude": 44.5711111,
    "longitude": 26.085,
    "count": 1
  },
  "CPH": {
    "city": "Copenhagen",
    "state": null,
    "country": "Denmark",
    "countryCode": "DK",
    "latitude": 55.617900848389,
    "longitude": 12.656000137329,
    "count": 1
  },
  "DUB": {
    "city": "Dublin",
    "state": null,
    "country": "Ireland",
    "countryCode": "IE",
    "latitude": 53.421299,
    "longitude": -6.27007,
    "count": 1
  },
  "DUS": {
    "city": "Düsseldorf",
    "state": null,
    "country": "Germany",
    "countryCode": "DE",
    "latitude": 51.289501,
    "longitude": 6.76678,
    "count": 1
  },
  "FRA": {
    "city": "Frankfurt am Main",
    "state": null,
    "country": "Germany",
    "countryCode": "DE",
    "latitude": 50.033333,
    "longitude": 8.570556,
    "count": 1
  },
  "GVA": {
    "city": "Geneva",
    "state": null,
    "country": "Switzerland",
    "countryCode": "CH",
    "latitude": 46.23809814453125,
    "longitude": 6.108950138092041,
    "count": 1
  },
  "HAM": {
    "city": "Hamburg",
    "state": null,
    "country": "Germany",
    "countryCode": "DE",
    "latitude": 53.630401611328,
    "longitude": 9.9882297515869,
    "count": 1
  },
  "HEL": {
    "city": "Helsinki",
    "state": null,
    "country": "Finland",
    "countryCode": "FI",
    "latitude": 60.317199707031,
    "longitude": 24.963300704956,
    "count": 1
  },
  "KBP": {
    "city": "Kiev",
    "state": null,
    "country": "Ukraine",
    "countryCode": "UA",
    "latitude": 50.345001220703125,
    "longitude": 30.894699096679688,
    "count": 1
  },
  "LIS": {
    "city": "Lisbon",
    "state": null,
    "country": "Portugal",
    "countryCode": "PT",
    "latitude": 38.7813,
    "longitude": -9.13592,
    "count": 1
  },
  "LTN": {
    "city": "London",
    "state": null,
    "country": "United Kingdom",
    "countryCode": "GB",
    "latitude": 51.874698638916016,
    "longitude": -0.36833301186561584,
    "count": 1
  },
  "MAD": {
    "city": "Madrid",
    "state": null,
    "country": "Spain",
    "countryCode": "ES",
    "latitude": 40.471926,
    "longitude": -3.56264,
    "count": 1
  },
  "MAN": {
    "city": "Manchester",
    "state": null,
    "country": "United Kingdom",
    "countryCode": "GB",
    "latitude": 53.35369873046875,
    "longitude": -2.2749500274658203,
    "count": 1
  },
  "MRS": {
    "city": "Marseille",
    "state": null,
    "country": "France",
    "countryCode": "FR",
    "latitude": 43.439271922,
    "longitude": 5.22142410278,
    "count": 1
  },
  "MXP": {
    "city": "Milan",
    "state": null,
    "country": "Italy",
    "countryCode": "IT",
    "latitude": 45.6306,
    "longitude": 8.72811,
    "count": 1
  },
  "MUC": {
    "city": "Munich",
    "state": null,
    "country": "Germany",
    "countryCode": "DE",
    "latitude": 48.353802,
    "longitude": 11.7861,
    "count": 1
  },
  "ZIA": {
    "city": "Moscow",
    "state": null,
    "country": "Russian Federation",
    "countryCode": "RU",
    "latitude": 55.553299,
    "longitude": 38.150002,
    "count": 1
  },
  "OSL": {
    "city": "Oslo",
    "state": null,
    "country": "Norway",
    "countryCode": "NO",
    "latitude": 60.193901062012,
    "longitude": 11.100399971008,
    "count": 1
  },
  "CDG": {
    "city": "Paris",
    "state": null,
    "country": "France",
    "countryCode": "FR",
    "latitude": 49.012798,
    "longitude": 2.55,
    "count": 1
  },
  "PRG": {
    "city": "Prague",
    "state": null,
    "country": "Czech Republic",
    "countryCode": "CZ",
    "latitude": 50.1008,
    "longitude": 14.26,
    "count": 1
  },
  "CIA": {
    "city": "Rome",
    "state": null,
    "country": "Italy",
    "countryCode": "IT",
    "latitude": 41.7994,
    "longitude": 12.5949,
    "count": 1
  },
  "LED": {
    "city": "St. Petersburg",
    "state": null,
    "country": "Russian Federation",
    "countryCode": "RU",
    "latitude": 59.80030059814453,
    "longitude": 30.262500762939453,
    "count": 1
  },
  "SOF": {
    "city": "Sofia",
    "state": null,
    "country": "Bulgaria",
    "countryCode": "BG",
    "latitude": 42.696693420410156,
    "longitude": 23.411436080932617,
    "count": 1
  },
  "ARN": {
    "city": "Stockholm",
    "state": null,
    "country": "Sweden",
    "countryCode": "SE",
    "latitude": 59.651901245117,
    "longitude": 17.918600082397,
    "count": 1
  },
  "TRN": {
    "city": "Torino",
    "state": null,
    "country": "Italy",
    "countryCode": "IT",
    "latitude": 45.200802,
    "longitude": 7.64963,
    "count": 1
  },
  "VIE": {
    "city": "Vienna",
    "state": null,
    "country": "Austria",
    "countryCode": "AT",
    "latitude": 48.110298156738,
    "longitude": 16.569700241089,
    "count": 1
  },
  "WMI": {
    "city": "Warsaw",
    "state": null,
    "country": "Poland",
    "countryCode": "PL",
    "latitude": 52.451099,
    "longitude": 20.6518,
    "count": 1
  },
  "ZAG": {
    "city": "Zagreb",
    "state": null,
    "country": "Croatia",
    "countryCode": "HR",
    "latitude": 45.7429008484,
    "longitude": 16.0687999725,
    "count": 1
  },
  "ZRH": {
    "city": "Zurich",
    "state": null,
    "country": "Switzerland",
    "countryCode": "CH",
    "latitude": 47.464699,
    "longitude": 8.54917,
    "count": 1
  },
  "DXB": {
    "city": "Dubai",
    "state": null,
    "country": "United Arab Emirates",
    "countryCode": "AE",
    "latitude": 25.2527999878,
    "longitude": 55.3643989563,
    "count": 1
  },
  "FJR": {
    "city": "Fujairah",
    "state": null,
    "country": "United Arab Emirates",
    "countryCode": "AE",
    "latitude": 25.112222,
    "longitude": 56.324167,
    "count": 1
  },
  "MCT": {
    "city": "Muscat",
    "state": null,
    "country": "Oman",
    "countryCode": "OM",
    "latitude": 23.593299865722656,
    "longitude": 58.284400939941406,
    "count": 1
  },
  "TLV": {
    "city": "Tel Aviv",
    "state": null,
    "country": "Israel",
    "countryCode": "IL",
    "latitude": 32.01139831542969,
    "longitude": 34.88669967651367,
    "count": 1
  },
  "DMK": {
    "city": "Bangkok",
    "state": null,
    "country": "Thailand",
    "countryCode": "TH",
    "latitude": 13.9125995636,
    "longitude": 100.607002258,
    "count": 1
  },
  "PUS": {
    "city": "Busan",
    "state": null,
    "country": "Korea, Republic of",
    "countryCode": "KR",
    "latitude": 35.1795005798,
    "longitude": 128.93800354,
    "count": 1
  },
  "MAA": {
    "city": "Chennai",
    "state": null,
    "country": "India",
    "countryCode": "IN",
    "latitude": 12.990005493164062,
    "longitude": 80.16929626464844,
    "count": 1
  },
  "DEL": {
    "city": "New Delhi",
    "state": null,
    "country": "India",
    "countryCode": "IN",
    "latitude": 28.5665,
    "longitude": 77.103104,
    "count": 1
  },
  "HKG": {
    "city": "Hong Kong",
    "state": null,
    "country": "Hong Kong",
    "countryCode": "HK",
    "latitude": 22.308901,
    "longitude": 113.915001,
    "count": 1
  },
  "HSZ": {
    "city": "Hsinchu",
    "state": null,
    "country": "Taiwan, Province of China",
    "countryCode": "TW",
    "latitude": 24.8180007935,
    "longitude": 120.939002991,
    "count": 1
  },
  "HYD": {
    "city": "Hyderabad",
    "state": null,
    "country": "India",
    "countryCode": "IN",
    "latitude": 17.231318,
    "longitude": 78.429855,
    "count": 1
  },
  "CGK": {
    "city": "Jakarta",
    "state": null,
    "country": "Indonesia",
    "countryCode": "ID",
    "latitude": -6.1255698204,
    "longitude": 106.65599823,
    "count": 1
  },
  "CCU": {
    "city": "Kolkata",
    "state": null,
    "country": "India",
    "countryCode": "IN",
    "latitude": 22.654699325561523,
    "longitude": 88.44670104980469,
    "count": 1
  },
  "KUL": {
    "city": "Kuala Lumpur",
    "state": null,
    "country": "Malaysia",
    "countryCode": "MY",
    "latitude": 2.745579957962,
    "longitude": 101.70999908447,
    "count": 1
  },
  "BOM": {
    "city": "Mumbai",
    "state": null,
    "country": "India",
    "countryCode": "IN",
    "latitude": 19.0886993408,
    "longitude": 72.8678970337,
    "count": 1
  },
  "KIX": {
    "city": "Osaka",
    "state": null,
    "country": "Japan",
    "countryCode": "JP",
    "latitude": 34.42729949951172,
    "longitude": 135.24400329589844,
    "count": 1
  },
  "ICN": {
    "city": "Seoul",
    "state": null,
    "country": "Korea, Republic of",
    "countryCode": "KR",
    "latitude": 37.46910095214844,
    "longitude": 126.45099639892578,
    "count": 1
  },
  "SIN": {
    "city": "Singapore",
    "state": null,
    "country": "Singapore",
    "countryCode": "SG",
    "latitude": 1.35019,
    "longitude": 103.994003,
    "count": 1
  },
  "TPE": {
    "city": "Taipei",
    "state": null,
    "country": "Taiwan, Province of China",
    "countryCode": "TW",
    "latitude": 25.0777,
    "longitude": 121.233002,
    "count": 1
  },
  "NRT": {
    "city": "Tokyo",
    "state": null,
    "country": "Japan",
    "countryCode": "JP",
    "latitude": 35.764702,
    "longitude": 140.386002,
    "count": 1
  },
  "AKL": {
    "city": "Auckland",
    "state": null,
    "country": "New Zealand",
    "countryCode": "NZ",
    "latitude": -37.008098602299995,
    "longitude": 174.792007446,
    "count": 1
  },
  "BNE": {
    "city": "Brisbane",
    "state": null,
    "country": "Australia",
    "countryCode": "AU",
    "latitude": -27.384199142456055,
    "longitude": 153.11700439453125,
    "count": 1
  },
  "CBR": {
    "city": "Canberra",
    "state": null,
    "country": "Australia",
    "countryCode": "AU",
    "latitude": -35.30690002441406,
    "longitude": 149.19500732421875,
    "count": 1
  },
  "MEL": {
    "city": "Melbourne",
    "state": null,
    "country": "Australia",
    "countryCode": "AU",
    "latitude": -37.673302,
    "longitude": 144.843002,
    "count": 1
  },
  "PER": {
    "city": "Perth",
    "state": null,
    "country": "Australia",
    "countryCode": "AU",
    "latitude": -31.94029998779297,
    "longitude": 115.96700286865234,
    "count": 1
  },
  "SYD": {
    "city": "Sydney",
    "state": null,
    "country": "Australia",
    "countryCode": "AU",
    "latitude": -33.94609832763672,
    "longitude": 151.177001953125,
    "count": 1
  },
  "JNB": {
    "city": "Johannesburg",
    "state": null,
    "country": "South Africa",
    "countryCode": "ZA",
    "latitude": -26.1392,
    "longitude": 28.246,
    "count": 1
  },
  "LOS": {
    "city": "Lagos",
    "state": null,
    "country": "Nigeria",
    "countryCode": "NG",
    "latitude": 6.5773701667785645,
    "longitude": 3.321160078048706,
    "count": 1
  },
  "MBA": {
    "city": "Mombasa",
    "state": null,
    "country": "Kenya",
    "countryCode": "KE",
    "latitude": -4.034830093383789,
    "longitude": 39.594200134277344,
    "count": 1
  }
}